[{"country":"CH","city":"Geneva","sd":"2016-09","lng":6.140028034,"prop_cnt_month":[0.0118110236,0.0118110236,0.0511811024,0.0236220472,0.0393700787,0.031496063,0.2165354331,0.3818897638,0.2322834646],"prop_city_month":0.0006077122,"appversion":["41","42","43","44","45","46","47","48","49"],"lat":46.21000755},{"country":"FR","city":"Lyon","sd":"2016-12","lng":4.830030475,"prop_cnt_month":[0.0079173838,0.0098106713,0.0316695353,0.0098106713,0.0230636833,0.0187607573,0.0989672978,0.0822719449,0.108605852,0.6091222031],"prop_city_month":0.01866187,"appversion":["41","42","43","44","45","46","47","48","49","50"],"lat":45.77000856},{"country":"CH","city":"Geneva","sd":"2016-12","lng":6.140028034,"prop_cnt_month":[0.0116959064,0.0175438596,0.0350877193,0.0233918129,0.0526315789,0.0467836257,0.0935672515,0.0526315789,0.0994152047,0.567251462],"prop_city_month":0.0005492564,"appversion":["41","42","43","44","45","46","47","48","49","50"],"lat":46.21000755},{"country":"CZ","city":"Prague","sd":"2016-08","lng":14.46597978,"prop_cnt_month":[0.0060651202,0.0092572888,0.0443711428,0.0151095978,0.0297935731,0.038731645,0.590019153,0.2666524793],"prop_city_month":0.0298571951,"appversion":["41","42","43","44","45","46","47","48"],"lat":50.08333701},{"country":"DE","city":"Munich","sd":"2016-12","lng":11.57499345,"prop_cnt_month":[0.0000581767,0.0000581767,0.0038978416,0.0085519809,0.0262377102,0.0082029205,0.0154750131,0.0114026412,0.0815637908,0.0523008901,0.1353772762,0.6568735819],"prop_city_month":0.0552115119,"appversion":["39","40","41","42","43","44","45","46","47","48","49","50"],"lat":48.12994204},{"country":"BG","city":"Sofia","sd":"2016-11","lng":23.31665401,"prop_cnt_month":[0.0001443418,0.0062066975,0.0066397229,0.0362297921,0.0064953811,0.0141454965,0.0128464203,0.0854503464,0.0590357968,0.4406755196,0.332130485],"prop_city_month":0.0168295041,"appversion":["40","41","42","43","44","45","46","47","48","49","50"],"lat":42.68334943},{"country":"CH","city":"Bern","sd":"2016-10","lng":7.466975462,"prop_cnt_month":[0.0047948855,0.0122535962,0.0335641982,0.0090570059,0.021310602,0.020777837,0.1592967501,0.231220032,0.5077250932],"prop_city_month":0.0054333353,"appversion":["41","42","43","44","45","46","47","48","49"],"lat":46.91668276},{"country":"BG","city":"Sofia","sd":"2016-08","lng":23.31665401,"prop_cnt_month":[0.0003445306,0.0091300603,0.0099913867,0.0594315245,0.0156761413,0.0303186908,0.0428940568,0.5710594315,0.2611541774],"prop_city_month":0.01844233,"appversion":["39","41","42","43","44","45","46","47","48"],"lat":42.68334943},{"country":"DE","city":"Frankfurt","sd":"2016-12","lng":8.67501542,"prop_cnt_month":[0.006268081,0.0108486017,0.0359209257,0.0084378014,0.012777242,0.0200096432,0.0879942141,0.0286885246,0.0783510125,0.7107039537],"prop_city_month":0.0133234831,"appversion":["41","42","43","44","45","46","47","48","49","50"],"lat":50.09997683},{"country":"DE","city":"Munich","sd":"2016-10","lng":11.57499345,"prop_cnt_month":[0.0000529549,0.0000529549,0.0051895785,0.0113323448,0.0316140648,0.0119678034,0.0198580809,0.0194873967,0.1508684601,0.2079538233,0.5416225376],"prop_city_month":0.0546633474,"appversion":["39","40","41","42","43","44","45","46","47","48","49"],"lat":48.12994204},{"country":"ES","city":"Barcelona","sd":"2016-09","lng":2.183370319,"prop_cnt_month":[0.0000656211,0.0000656211,0.0096463023,0.0118117987,0.0514469453,0.0269046525,0.0282170746,0.0408163265,0.2897827941,0.3537633703,0.1874794934],"prop_city_month":0.0364603396,"appversion":["39","40","41","42","43","44","45","46","47","48","49"],"lat":41.38329958},{"country":"RS","city":"Belgrade","sd":"2016-09","lng":20.46799068,"prop_cnt_month":[0.0000985902,0.0095632456,0.008577344,0.0458444247,0.013506852,0.0257320319,0.0269151139,0.2616582865,0.3782904466,0.2298136646],"prop_city_month":0.0242678145,"appversion":["40","41","42","43","44","45","46","47","48","49"],"lat":44.81864545},{"country":"GB","city":"Manchester","sd":"2016-12","lng":-2.247987103,"prop_cnt_month":[0.0029799915,0.0076628352,0.0255427842,0.006385696,0.0234142188,0.0119199659,0.0804597701,0.055342699,0.1255853555,0.6607066837],"prop_city_month":0.0075450487,"appversion":["41","42","43","44","45","46","47","48","49","50"],"lat":53.50041526},{"country":"FR","city":"Paris","sd":"2016-12","lng":2.333335326,"prop_cnt_month":[0.0000357961,0.0078393471,0.0102376861,0.0359392898,0.0128508018,0.0180412371,0.0157502864,0.0954682131,0.0667597365,0.1258949026,0.6111827033],"prop_city_month":0.0897311534,"appversion":["40","41","42","43","44","45","46","47","48","49","50"],"lat":48.86669293},{"country":"PL","city":"Warsaw","sd":"2016-11","lng":20.99999955,"prop_cnt_month":[0.0000326456,0.0065617655,0.0057129799,0.0262144163,0.0082593366,0.0107404022,0.0103813006,0.0828218856,0.0506659702,0.4646121703,0.3339971272],"prop_city_month":0.0744112832,"appversion":["40","41","42","43","44","45","46","47","48","49","50"],"lat":52.25000063},{"country":"GB","city":"Edinburgh","sd":"2016-11","lng":-3.219090618,"prop_cnt_month":[0.0036919831,0.0036919831,0.029535865,0.0036919831,0.016350211,0.0179324895,0.0870253165,0.0643459916,0.4646624473,0.30907173],"prop_city_month":0.004605765,"appversion":["41","42","43","44","45","46","47","48","49","50"],"lat":55.94832786},{"country":"GB","city":"Glasgow","sd":"2016-08","lng":-4.250707236,"prop_cnt_month":[0.0027894003,0.0069735007,0.0446304045,0.0223152022,0.0353324035,0.0581125058,0.5783356578,0.2515109252],"prop_city_month":0.0068336696,"appversion":["41","42","43","44","45","46","47","48"],"lat":55.87440472},{"country":"DE","city":"Hamburg","sd":"2016-09","lng":9.999999144,"prop_cnt_month":[0.0000434764,0.0042172079,0.009738707,0.0316073214,0.0143472023,0.0227816182,0.0204773705,0.2771183862,0.4019825225,0.2176861876],"prop_city_month":0.0550314503,"appversion":["40","41","42","43","44","45","46","47","48","49"],"lat":53.55002464},{"country":"GR","city":"Athens","sd":"2016-11","lng":23.73332108,"prop_cnt_month":[0.0000469836,0.0050272505,0.0061548581,0.035002819,0.0093027626,0.0146588987,0.0150817516,0.0886111633,0.0584006766,0.441787258,0.3259255779],"prop_city_month":0.0517031128,"appversion":["40","41","42","43","44","45","46","47","48","49","50"],"lat":37.98332623},{"country":"BE","city":"Brussels","sd":"2016-10","lng":4.333316608,"prop_cnt_month":[0.0056706114,0.0099852071,0.0346400394,0.0162721893,0.0216962525,0.028229783,0.1400394477,0.1873767258,0.5560897436],"prop_city_month":0.0234817345,"appversion":["41","42","43","44","45","46","47","48","49"],"lat":50.83331708},{"country":"BA","city":"Sarajevo","sd":"2016-08","lng":18.38300167,"prop_cnt_month":[0.006097561,0.012195122,0.066395664,0.0176151762,0.0372628726,0.0474254743,0.5697831978,0.2432249322],"prop_city_month":0.0046892126,"appversion":["41","42","43","44","45","46","47","48"],"lat":43.8500224},{"country":"CH","city":"Bern","sd":"2016-11","lng":7.466975462,"prop_cnt_month":[0.0042553191,0.0070921986,0.0278959811,0.0104018913,0.0184397163,0.0141843972,0.0936170213,0.0879432624,0.4439716312,0.2921985816],"prop_city_month":0.00513776,"appversion":["41","42","43","44","45","46","47","48","49","50"],"lat":46.91668276},{"country":"GB","city":"Cardiff","sd":"2016-12","lng":-3.22500757,"prop_cnt_month":[0.0015432099,0.0015432099,0.0185185185,0.0030864198,0.0185185185,0.0108024691,0.075617284,0.049382716,0.1358024691,0.6851851852],"prop_city_month":0.0020813927,"appversion":["41","42","43","44","45","46","47","48","49","50"],"lat":51.49999473},{"country":"GB","city":"Edinburgh","sd":"2016-09","lng":-3.219090618,"prop_cnt_month":[0.0047021944,0.0099268548,0.039707419,0.013061651,0.0240334378,0.026123302,0.2528735632,0.4195402299,0.210031348],"prop_city_month":0.0045793746,"appversion":["41","42","43","44","45","46","47","48","49"],"lat":55.94832786},{"country":"GB","city":"Liverpool","sd":"2016-11","lng":-2.917997886,"prop_cnt_month":[0.0005599104,0.0100783875,0.0050391937,0.039193729,0.0078387458,0.0139977604,0.0145576708,0.1024636058,0.0755879059,0.4356103024,0.2950727884],"prop_city_month":0.0043385529,"appversion":["39","41","42","43","44","45","46","47","48","49","50"],"lat":53.41600181},{"country":"FR","city":"Marseille","sd":"2016-11","lng":5.37501013,"prop_cnt_month":[0.0041093076,0.0137661804,0.044996918,0.0115060612,0.0172590918,0.0252722416,0.1187589891,0.0649270598,0.4310663653,0.2683377851],"prop_city_month":0.011822921,"appversion":["41","42","43","44","45","46","47","48","49","50"],"lat":43.28997906},{"country":"GB","city":"London","sd":"2016-12","lng":-0.116721844,"prop_cnt_month":[0.0063089141,0.0080902546,0.0324352409,0.0099458176,0.0139538336,0.0142507237,0.0880279077,0.0593037928,0.1226898241,0.6449936911],"prop_city_month":0.0432756239,"appversion":["41","42","43","44","45","46","47","48","49","50"],"lat":51.49999473},{"country":"FR","city":"Nice","sd":"2016-08","lng":7.265023965,"prop_cnt_month":[0.0005913661,0.0023654642,0.0065050266,0.0402128918,0.0076877587,0.0230632762,0.042578356,0.6185688941,0.2584269663],"prop_city_month":0.0053722618,"appversion":["40","41","42","43","44","45","46","47","48"],"lat":43.71501772},{"country":"DE","city":"Hamburg","sd":"2016-12","lng":9.999999144,"prop_cnt_month":[0.0000582479,0.0000582479,0.0041356011,0.0100768872,0.0285414725,0.0079217148,0.0148532153,0.0116495806,0.081139329,0.0505591799,0.140610438,0.6503960857],"prop_city_month":0.0551440594,"appversion":["39","40","41","42","43","44","45","46","47","48","49","50"],"lat":53.55002464},{"country":"FR","city":"Lille","sd":"2016-08","lng":3.080008096,"prop_cnt_month":[0.0022421525,0.0078475336,0.0549327354,0.0123318386,0.024103139,0.0353139013,0.6188340807,0.2443946188],"prop_city_month":0.0056677204,"appversion":["41","42","43","44","45","46","47","48"],"lat":50.64996909},{"country":"DE","city":"Berlin","sd":"2016-09","lng":13.40154862,"prop_cnt_month":[0.0000267953,0.0000267953,0.005278671,0.0114415863,0.0330117899,0.0126205788,0.0242765273,0.0245712755,0.2824758842,0.3918810289,0.2143890675],"prop_city_month":0.0892906276,"appversion":["39","40","41","42","43","44","45","46","47","48","49"],"lat":52.52181866},{"country":"IE","city":"Dublin","sd":"2016-08","lng":-6.248905682,"prop_cnt_month":[0.0075263422,0.013798294,0.0494229804,0.0193176116,0.0366281987,0.0481685901,0.5687405921,0.2563973909],"prop_city_month":0.0126634156,"appversion":["41","42","43","44","45","46","47","48"],"lat":53.33306114},{"country":"FR","city":"Marseille","sd":"2016-09","lng":5.37501013,"prop_cnt_month":[0.0047152018,0.0222557525,0.0552621652,0.0231987929,0.0254620898,0.0558279894,0.2610335722,0.3670313089,0.1852131271],"prop_city_month":0.0126853941,"appversion":["41","42","43","44","45","46","47","48","49"],"lat":43.28997906},{"country":"BG","city":"Sofia","sd":"2016-10","lng":23.31665401,"prop_cnt_month":[0.0001715854,0.0080645161,0.0080645161,0.0434111187,0.0126973233,0.0229924502,0.0200754976,0.1506520247,0.1923472889,0.5415236788],"prop_city_month":0.0168702599,"appversion":["39","41","42","43","44","45","46","47","48","49"],"lat":42.68334943},{"country":"ES","city":"Barcelona","sd":"2016-12","lng":2.183370319,"prop_cnt_month":[0.0001619302,0.0080155453,0.010930289,0.0413731682,0.0240466359,0.0205651364,0.0166788114,0.1059833212,0.0613715489,0.1539146628,0.5569589507],"prop_city_month":0.039671731,"appversion":["39","41","42","43","44","45","46","47","48","49","50"],"lat":41.38329958},{"country":"GB","city":"London","sd":"2016-09","lng":-0.116721844,"prop_cnt_month":[0.0083272328,0.0095168375,0.0444271596,0.0158766471,0.0230142753,0.0308839678,0.2648243045,0.4398792094,0.163250366],"prop_city_month":0.0522919603,"appversion":["41","42","43","44","45","46","47","48","49"],"lat":51.49999473},{"country":"BA","city":"Sarajevo","sd":"2016-11","lng":18.38300167,"prop_cnt_month":[0.0061213133,0.0055648303,0.040066778,0.0105731775,0.020033389,0.0144685587,0.0862548692,0.0584307179,0.4435169727,0.3149693934],"prop_city_month":0.0043652741,"appversion":["41","42","43","44","45","46","47","48","49","50"],"lat":43.8500224},{"country":"FR","city":"Nice","sd":"2016-12","lng":7.265023965,"prop_cnt_month":[0.0054811206,0.0103532278,0.0322777101,0.0103532278,0.0176613886,0.0140073082,0.0676004872,0.059683313,0.1138855055,0.6686967113],"prop_city_month":0.0052741464,"appversion":["41","42","43","44","45","46","47","48","49","50"],"lat":43.71501772},{"country":"DE","city":"Cologne","sd":"2016-11","lng":6.950004434,"prop_cnt_month":[0.0909090909,0.1818181818,0.0909090909,0.4545454545,0.1818181818],"prop_city_month":0.0000267212,"appversion":["45","46","47","49","50"],"lat":50.93000368},{"country":"ES","city":"Barcelona","sd":"2016-10","lng":2.183370319,"prop_cnt_month":[0.0000747049,0.0000747049,0.0097863439,0.0132227701,0.0505752278,0.0296578515,0.0301807859,0.0327954579,0.1748095025,0.1873599283,0.4714627222],"prop_city_month":0.0387483356,"appversion":["39","40","41","42","43","44","45","46","47","48","49"],"lat":41.38329958},{"country":"GB","city":"Liverpool","sd":"2016-10","lng":-2.917997886,"prop_cnt_month":[0.0084626234,0.0042313117,0.0557122708,0.0126939351,0.0183356841,0.0218617772,0.1706629055,0.1791255289,0.5289139633],"prop_city_month":0.004104672,"appversion":["41","42","43","44","45","46","47","48","49"],"lat":53.41600181},{"country":"BE","city":"Brussels","sd":"2016-08","lng":4.333316608,"prop_cnt_month":[0.006587246,0.0098107919,0.0431674842,0.0207428171,0.0332165382,0.0434477926,0.5871058164,0.2559215137],"prop_city_month":0.0226677045,"appversion":["41","42","43","44","45","46","47","48"],"lat":50.83331708},{"country":"GR","city":"Athens","sd":"2016-12","lng":23.73332108,"prop_cnt_month":[0.0000643418,0.0001286836,0.0064985201,0.0069489126,0.0413717668,0.0098442929,0.0155063698,0.0138978252,0.0960622828,0.0474842363,0.1324153906,0.6297773774],"prop_city_month":0.0499213054,"appversion":["39","40","41","42","43","44","45","46","47","48","49","50"],"lat":37.98332623},{"country":"AT","city":"Vienna","sd":"2016-08","lng":16.36663896,"prop_cnt_month":[0.00502693,0.0127468582,0.0375224417,0.018491921,0.0281867145,0.0432675045,0.6168761221,0.2378815081],"prop_city_month":0.0353914825,"appversion":["41","42","43","44","45","46","47","48"],"lat":48.20001528},{"country":"GB","city":"Liverpool","sd":"2016-08","lng":-2.917997886,"prop_cnt_month":[0.0104555639,0.0089619119,0.0582524272,0.0164301718,0.0291262136,0.0433159074,0.5870052278,0.2464525765],"prop_city_month":0.0042539672,"appversion":["41","42","43","44","45","46","47","48"],"lat":53.41600181},{"country":"GR","city":"Athens","sd":"2016-08","lng":23.73332108,"prop_cnt_month":[0.0000604961,0.0001814882,0.008953418,0.0091349062,0.0549909256,0.0172413793,0.026799758,0.0410163339,0.5891107078,0.2525105868],"prop_city_month":0.0525153686,"appversion":["39","40","41","42","43","44","45","46","47","48"],"lat":37.98332623},{"country":"HU","city":"Budapest","sd":"2016-11","lng":19.08332068,"prop_cnt_month":[0.0000657981,0.0056586393,0.0063824187,0.0315173049,0.0086853533,0.0140808001,0.0125674431,0.0775759968,0.0604684827,0.4593367548,0.323661008],"prop_city_month":0.0369189959,"appversion":["40","41","42","43","44","45","46","47","48","49","50"],"lat":47.50000633},{"country":"IT","city":"Rome","sd":"2016-11","lng":12.48325842,"prop_cnt_month":[0.0052610043,0.0168352137,0.0408020109,0.011048109,0.01648448,0.0168936693,0.0994914363,0.0740047934,0.4275442801,0.2916350032],"prop_city_month":0.0415563405,"appversion":["41","42","43","44","45","46","47","48","49","50"],"lat":41.89595563},{"country":"FR","city":"Lyon","sd":"2016-10","lng":4.830030475,"prop_cnt_month":[0.0060741688,0.0108695652,0.0342071611,0.0135869565,0.0327685422,0.0255754476,0.1328324808,0.2030051151,0.5410805627],"prop_city_month":0.0181091877,"appversion":["41","42","43","44","45","46","47","48","49"],"lat":45.77000856},{"country":"FR","city":"Paris","sd":"2016-08","lng":2.333335326,"prop_cnt_month":[0.0001266357,0.0000844238,0.0088222879,0.0110595188,0.0442380751,0.0186154496,0.0295905445,0.0404390038,0.6022372309,0.2447868299],"prop_city_month":0.0752624974,"appversion":["39","40","41","42","43","44","45","46","47","48"],"lat":48.86669293},{"country":"RO","city":"Bucharest","sd":"2016-11","lng":26.09994665,"prop_cnt_month":[0.0054885818,0.0056846026,0.0335195531,0.0067627168,0.0130353818,0.012839361,0.086151132,0.0619425659,0.4572184652,0.3173576399],"prop_city_month":0.0247851372,"appversion":["41","42","43","44","45","46","47","48","49","50"],"lat":44.4333718},{"country":"FR","city":"Lille","sd":"2016-12","lng":3.080008096,"prop_cnt_month":[0.0061823802,0.0077279753,0.0298815044,0.0072127769,0.0154559505,0.008758372,0.1076764554,0.04688305,0.1035548686,0.6666666667],"prop_city_month":0.0062345421,"appversion":["41","42","43","44","45","46","47","48","49","50"],"lat":50.64996909},{"country":"FR","city":"Lyon","sd":"2016-08","lng":4.830030475,"prop_cnt_month":[0.0062659095,0.0064617192,0.0393577443,0.0135108674,0.0301546896,0.0319169767,0.617387899,0.2549441942],"prop_city_month":0.0162248026,"appversion":["41","42","43","44","45","46","47","48"],"lat":45.77000856},{"country":"BE","city":"Brussels","sd":"2016-09","lng":4.333316608,"prop_cnt_month":[0.0062506511,0.0101052193,0.0358370664,0.0187519533,0.0245858944,0.0312532555,0.256589228,0.4097301802,0.2068965517],"prop_city_month":0.0229662576,"appversion":["41","42","43","44","45","46","47","48","49"],"lat":50.83331708},{"country":"BE","city":"Brussels","sd":"2016-11","lng":4.333316608,"prop_cnt_month":[0.0001136235,0.0045449381,0.0071582775,0.0298829678,0.0101124872,0.0137484377,0.016589024,0.0868083172,0.0769230769,0.4592659925,0.2948528576],"prop_city_month":0.0213793975,"appversion":["39","41","42","43","44","45","46","47","48","49","50"],"lat":50.83331708},{"country":"CH","city":"Geneva","sd":"2016-11","lng":6.140028034,"prop_cnt_month":[0.0041841004,0.0083682008,0.0334728033,0.0125523013,0.0418410042,0.0376569038,0.0711297071,0.0669456067,0.4728033473,0.2510460251],"prop_city_month":0.000580579,"appversion":["41","42","43","44","45","46","47","48","49","50"],"lat":46.21000755},{"country":"GB","city":"Cardiff","sd":"2016-09","lng":-3.22500757,"prop_cnt_month":[0.0116525424,0.0052966102,0.0381355932,0.0084745763,0.0243644068,0.0254237288,0.2574152542,0.4163135593,0.2129237288],"prop_city_month":0.0022585839,"appversion":["41","42","43","44","45","46","47","48","49"],"lat":51.49999473},{"country":"DE","city":"Cologne","sd":"2016-09","lng":6.950004434,"prop_cnt_month":[0.0625,0.0625,0.1875,0.375,0.3125],"prop_city_month":0.0000382811,"appversion":["44","45","47","48","49"],"lat":50.93000368},{"country":"GB","city":"Manchester","sd":"2016-11","lng":-2.247987103,"prop_cnt_month":[0.0064814815,0.0058641975,0.0274691358,0.0074074074,0.0197530864,0.0135802469,0.0814814815,0.0666666667,0.4777777778,0.2935185185],"prop_city_month":0.007870611,"appversion":["41","42","43","44","45","46","47","48","49","50"],"lat":53.50041526},{"country":"PT","city":"Porto","sd":"2016-09","lng":-8.620001263,"prop_cnt_month":[0.0004821601,0.0057859209,0.0072324012,0.0356798457,0.0226615236,0.0221793635,0.0294117647,0.2796528447,0.3924783028,0.2044358727],"prop_city_month":0.0049621855,"appversion":["39","41","42","43","44","45","46","47","48","49"],"lat":41.15000633},{"country":"ES","city":"Madrid","sd":"2016-11","lng":-3.683351686,"prop_cnt_month":[0.0000422672,0.0000845344,0.006931823,0.0091719853,0.0407033264,0.0114121476,0.0271778182,0.0199501247,0.1081195317,0.0719387971,0.4245318906,0.2799357538],"prop_city_month":0.057472465,"appversion":["39","40","41","42","43","44","45","46","47","48","49","50"],"lat":40.40002626},{"country":"RS","city":"Belgrade","sd":"2016-12","lng":20.46799068,"prop_cnt_month":[0.0098870056,0.0065485362,0.0482794042,0.0130970724,0.0160503338,0.0136106831,0.1007960966,0.0568823832,0.1390600924,0.5957883924],"prop_city_month":0.0250152571,"appversion":["41","42","43","44","45","46","47","48","49","50"],"lat":44.81864545},{"country":"IT","city":"Milan","sd":"2016-10","lng":9.20500891,"prop_cnt_month":[0.007538696,0.0101050606,0.0439489935,0.012029834,0.0204507178,0.0238992702,0.1582324164,0.1826128799,0.5411821317],"prop_city_month":0.0360939038,"appversion":["41","42","43","44","45","46","47","48","49"],"lat":45.4699752},{"country":"RS","city":"Belgrade","sd":"2016-08","lng":20.46799068,"prop_cnt_month":[0.0001249531,0.0001249531,0.0107459703,0.0114956891,0.0649756341,0.0232412845,0.0372360365,0.0411095839,0.5649131576,0.2460327377],"prop_city_month":0.0254253173,"appversion":["39","40","41","42","43","44","45","46","47","48"],"lat":44.81864545},{"country":"BG","city":"Sofia","sd":"2016-12","lng":23.31665401,"prop_cnt_month":[0.0085927057,0.0072560626,0.0379988543,0.0082108077,0.0139392782,0.0131754821,0.0872637006,0.0473553561,0.1353828528,0.6408248998],"prop_city_month":0.0168213792,"appversion":["41","42","43","44","45","46","47","48","49","50"],"lat":42.68334943},{"country":"GB","city":"Glasgow","sd":"2016-11","lng":-4.250707236,"prop_cnt_month":[0.0015533981,0.0054368932,0.0295145631,0.0054368932,0.0166990291,0.014368932,0.0741747573,0.0998058252,0.4594174757,0.293592233],"prop_city_month":0.0062551924,"appversion":["41","42","43","44","45","46","47","48","49","50"],"lat":55.87440472},{"country":"DE","city":"Berlin","sd":"2016-11","lng":13.40154862,"prop_cnt_month":[0.0000542505,0.0042315413,0.0087614604,0.0274507676,0.008924212,0.0164379103,0.0145120165,0.0901372538,0.068925297,0.4493842565,0.311181034],"prop_city_month":0.0895549218,"appversion":["40","41","42","43","44","45","46","47","48","49","50"],"lat":52.52181866},{"country":"ES","city":"Madrid","sd":"2016-08","lng":-3.683351686,"prop_cnt_month":[0.0000654065,0.0100071947,0.0121656093,0.0561841847,0.0199489829,0.0442802015,0.0527176401,0.5817254235,0.2229053568],"prop_city_month":0.0485727447,"appversion":["40","41","42","43","44","45","46","47","48"],"lat":40.40002626},{"country":"RS","city":"Belgrade","sd":"2016-10","lng":20.46799068,"prop_cnt_month":[0.0108095124,0.0094883497,0.0524861878,0.0165745856,0.0249819841,0.0245015614,0.1586596205,0.1908479462,0.5116502522],"prop_city_month":0.0241011984,"appversion":["41","42","43","44","45","46","47","48","49"],"lat":44.81864545},{"country":"BG","city":"Sofia","sd":"2016-09","lng":23.31665401,"prop_cnt_month":[0.0001380643,0.0064890239,0.0059367665,0.0427999448,0.010216761,0.0222283584,0.0247135165,0.2614938561,0.3876846611,0.2382990474],"prop_city_month":0.0173293681,"appversion":["39","41","42","43","44","45","46","47","48","49"],"lat":42.68334943},{"country":"DE","city":"Berlin","sd":"2016-10","lng":13.40154862,"prop_cnt_month":[0.0053883253,0.01207384,0.0342923665,0.0136038583,0.0244137702,0.0220189589,0.1542990188,0.2103775154,0.5235323466],"prop_city_month":0.087028889,"appversion":["41","42","43","44","45","46","47","48","49"],"lat":52.52181866},{"country":"DE","city":"Frankfurt","sd":"2016-11","lng":8.67501542,"prop_cnt_month":[0.0002167787,0.0065033601,0.0099718188,0.0381530457,0.0071536961,0.0125731628,0.0240624323,0.0860611316,0.0401040538,0.4914372426,0.2837632777],"prop_city_month":0.0112059039,"appversion":["40","41","42","43","44","45","46","47","48","49","50"],"lat":50.09997683},{"country":"FR","city":"Lille","sd":"2016-09","lng":3.080008096,"prop_cnt_month":[0.0045726345,0.0073865635,0.0443193809,0.0133661625,0.029546254,0.0298979951,0.2662680267,0.4108336265,0.1938093563],"prop_city_month":0.00680207,"appversion":["41","42","43","44","45","46","47","48","49"],"lat":50.64996909},{"country":"GB","city":"Edinburgh","sd":"2016-10","lng":-3.219090618,"prop_cnt_month":[0.0044642857,0.0057397959,0.0350765306,0.0121173469,0.0216836735,0.0261479592,0.1403061224,0.1970663265,0.5573979592],"prop_city_month":0.0045388757,"appversion":["41","42","43","44","45","46","47","48","49"],"lat":55.94832786},{"country":"FR","city":"Lille","sd":"2016-11","lng":3.080008096,"prop_cnt_month":[0.0003757986,0.00526118,0.0033821871,0.0263059,0.00789177,0.0139045472,0.0116497557,0.1067267944,0.0612551672,0.4622322435,0.3010146561],"prop_city_month":0.0064641037,"appversion":["39","41","42","43","44","45","46","47","48","49","50"],"lat":50.64996909},{"country":"GB","city":"Liverpool","sd":"2016-09","lng":-2.917997886,"prop_cnt_month":[0.0086855819,0.0086855819,0.0457440649,0.0162130863,0.0277938622,0.0248986682,0.2646207296,0.3902721482,0.2130862768],"prop_city_month":0.0041319645,"appversion":["41","42","43","44","45","46","47","48","49"],"lat":53.41600181},{"country":"GB","city":"London","sd":"2016-10","lng":-0.116721844,"prop_cnt_month":[0.0001175572,0.0082290014,0.0107564803,0.0399106566,0.0138717451,0.0212190678,0.0256274614,0.1384235585,0.1748075001,0.5670369717],"prop_city_month":0.0492473803,"appversion":["39","41","42","43","44","45","46","47","48","49"],"lat":51.49999473},{"country":"GB","city":"Manchester","sd":"2016-09","lng":-2.247987103,"prop_cnt_month":[0.0071103527,0.0068259386,0.0418088737,0.0091012514,0.0210466439,0.023890785,0.2494311718,0.444254835,0.1965301479],"prop_city_month":0.0084122681,"appversion":["41","42","43","44","45","46","47","48","49"],"lat":53.50041526},{"country":"NL","city":"Amsterdam","sd":"2016-08","lng":4.916640176,"prop_cnt_month":[0.010077447,0.0111971634,0.0755808529,0.0213679201,0.0332182514,0.0436689372,0.5619109826,0.2429784455],"prop_city_month":0.0340476228,"appversion":["41","42","43","44","45","46","47","48"],"lat":52.34996869},{"country":"NL","city":"Amsterdam","sd":"2016-12","lng":4.916640176,"prop_cnt_month":[0.0082561233,0.0069718374,0.0315567379,0.0077057151,0.0131180626,0.0149527566,0.1014585818,0.0499954133,0.1276947069,0.6382900651],"prop_city_month":0.0350142935,"appversion":["41","42","43","44","45","46","47","48","49","50"],"lat":52.34996869},{"country":"GB","city":"Cardiff","sd":"2016-11","lng":-3.22500757,"prop_cnt_month":[0.0046296296,0.0034722222,0.0277777778,0.0034722222,0.0150462963,0.0127314815,0.0613425926,0.0601851852,0.4988425926,0.3125],"prop_city_month":0.0020988296,"appversion":["41","42","43","44","45","46","47","48","49","50"],"lat":51.49999473},{"country":"RO","city":"Bucharest","sd":"2016-09","lng":26.09994665,"prop_cnt_month":[0.0049114792,0.0069674472,0.0408909195,0.0130211308,0.0201027984,0.027184466,0.2589377499,0.3933752142,0.234608795],"prop_city_month":0.0209469305,"appversion":["41","42","43","44","45","46","47","48","49"],"lat":44.4333718},{"country":"GB","city":"Manchester","sd":"2016-10","lng":-2.247987103,"prop_cnt_month":[0.0062262193,0.00968523,0.0387409201,0.0131442407,0.0276720858,0.0186786579,0.1369768246,0.1743341404,0.5745416811],"prop_city_month":0.0083685521,"appversion":["41","42","43","44","45","46","47","48","49"],"lat":53.50041526},{"country":"HU","city":"Budapest","sd":"2016-10","lng":19.08332068,"prop_cnt_month":[0.0069769351,0.0084544037,0.0422720184,0.0137076254,0.0219157843,0.0215053763,0.1370762538,0.1785274563,0.5695641468],"prop_city_month":0.0352660221,"appversion":["41","42","43","44","45","46","47","48","49"],"lat":47.50000633},{"country":"NL","city":"Amsterdam","sd":"2016-09","lng":4.916640176,"prop_cnt_month":[0.0000797639,0.0000797639,0.0072585148,0.0090930845,0.0579883545,0.0137991545,0.0243279892,0.0281566563,0.2534099067,0.4188402329,0.1869665789],"prop_city_month":0.0299956216,"appversion":["39","40","41","42","43","44","45","46","47","48","49"],"lat":52.34996869},{"country":"ES","city":"Madrid","sd":"2016-10","lng":-3.683351686,"prop_cnt_month":[0.0000488854,0.0097281971,0.013150176,0.0554360579,0.0182342589,0.0356374658,0.0329487681,0.1666014861,0.1843468909,0.4838678138],"prop_city_month":0.0592138019,"appversion":["39","41","42","43","44","45","46","47","48","49"],"lat":40.40002626},{"country":"CZ","city":"Prague","sd":"2016-09","lng":14.46597978,"prop_cnt_month":[0.0047681684,0.0073166721,0.0360901019,0.0105228543,0.0196481421,0.0271292338,0.2547681684,0.4029924367,0.2367642223],"prop_city_month":0.0291031938,"appversion":["41","42","43","44","45","46","47","48","49"],"lat":50.08333701},{"country":"FR","city":"Lille","sd":"2016-10","lng":3.080008096,"prop_cnt_month":[0.0080885483,0.0072371222,0.0472541507,0.0136228182,0.0238399319,0.0174542358,0.1647509579,0.1736909323,0.5440613027],"prop_city_month":0.0067996295,"appversion":["41","42","43","44","45","46","47","48","49"],"lat":50.64996909},{"country":"AT","city":"Vienna","sd":"2016-09","lng":16.36663896,"prop_cnt_month":[0.0041333701,0.0088867457,0.029966933,0.0119867732,0.0179801598,0.027762469,0.2648801323,0.4152659135,0.2191375034],"prop_city_month":0.0347305131,"appversion":["41","42","43","44","45","46","47","48","49"],"lat":48.20001528},{"country":"ES","city":"Valencia","sd":"2016-09","lng":-0.400012046,"prop_cnt_month":[0.0085327398,0.0118716379,0.055277314,0.0163235021,0.0268966797,0.0421072157,0.3040252272,0.3548506771,0.1801150065],"prop_city_month":0.0128983326,"appversion":["41","42","43","44","45","46","47","48","49"],"lat":39.48501752},{"country":"FR","city":"Bordeaux","sd":"2016-08","lng":-0.595013063,"prop_cnt_month":[0.0003137747,0.0031377471,0.0059617195,0.0385942893,0.0109821148,0.0241606527,0.0323187951,0.6291182931,0.2554126137],"prop_city_month":0.0101250139,"appversion":["40","41","42","43","44","45","46","47","48"],"lat":44.85001304},{"country":"BA","city":"Sarajevo","sd":"2016-09","lng":18.38300167,"prop_cnt_month":[0.007034632,0.0032467532,0.0405844156,0.0162337662,0.0265151515,0.0248917749,0.2494588745,0.3988095238,0.2332251082],"prop_city_month":0.0044214652,"appversion":["41","42","43","44","45","46","47","48","49"],"lat":43.8500224},{"country":"ES","city":"Valencia","sd":"2016-08","lng":-0.400012046,"prop_cnt_month":[0.0083436341,0.0092707046,0.0707663782,0.0173053152,0.031829419,0.0463535229,0.5920889988,0.2240420272],"prop_city_month":0.0102806856,"appversion":["41","42","43","44","45","46","47","48"],"lat":39.48501752},{"country":"HU","city":"Budapest","sd":"2016-08","lng":19.08332068,"prop_cnt_month":[0.0000802053,0.0084215592,0.0102662817,0.0495668912,0.0150786012,0.0283926853,0.0385787616,0.5836541546,0.2659608598],"prop_city_month":0.0396105031,"appversion":["40","41","42","43","44","45","46","47","48"],"lat":47.50000633},{"country":"PL","city":"Warsaw","sd":"2016-10","lng":20.99999955,"prop_cnt_month":[0.0083463339,0.0090483619,0.0391575663,0.0126365055,0.0166536661,0.0198127925,0.1417706708,0.1657176287,0.5868564743],"prop_city_month":0.0742198807,"appversion":["41","42","43","44","45","46","47","48","49"],"lat":52.25000063},{"country":"CH","city":"Bern","sd":"2016-08","lng":7.466975462,"prop_cnt_month":[0.0078692494,0.0121065375,0.0466101695,0.0199757869,0.0375302663,0.0466101695,0.6083535109,0.2209443099],"prop_city_month":0.0052483599,"appversion":["41","42","43","44","45","46","47","48"],"lat":46.91668276},{"country":"ES","city":"Valencia","sd":"2016-12","lng":-0.400012046,"prop_cnt_month":[0.0043900185,0.0094731978,0.0388170055,0.0103974122,0.0219500924,0.0205637708,0.106284658,0.1060536044,0.134935305,0.5471349353],"prop_city_month":0.0139016478,"appversion":["41","42","43","44","45","46","47","48","49","50"],"lat":39.48501752},{"country":"CZ","city":"Prague","sd":"2016-12","lng":14.46597978,"prop_cnt_month":[0.0041821561,0.0062732342,0.0290427509,0.0062732342,0.0157992565,0.0146375465,0.0824814126,0.0477462825,0.1220957249,0.6714684015],"prop_city_month":0.0276491183,"appversion":["41","42","43","44","45","46","47","48","49","50"],"lat":50.08333701},{"country":"GR","city":"Athens","sd":"2016-09","lng":23.73332108,"prop_cnt_month":[0.0000864155,0.0072589008,0.0067836156,0.0442015209,0.0132215693,0.0216038714,0.0260542689,0.2678880055,0.3789751123,0.2339267197],"prop_city_month":0.0553735875,"appversion":["40","41","42","43","44","45","46","47","48","49"],"lat":37.98332623},{"country":"IT","city":"Rome","sd":"2016-08","lng":12.48325842,"prop_cnt_month":[0.0000841397,0.0074884308,0.0204459403,0.0663862011,0.0213714767,0.0344972655,0.047959613,0.5952040387,0.2065628944],"prop_city_month":0.0377583276,"appversion":["40","41","42","43","44","45","46","47","48"],"lat":41.89595563},{"country":"PT","city":"Lisbon","sd":"2016-09","lng":-9.144866305,"prop_cnt_month":[0.0067991632,0.0085425384,0.0427126918,0.0179567643,0.0270223152,0.0367852162,0.2731868898,0.3823221757,0.2046722455],"prop_city_month":0.0137237685,"appversion":["41","42","43","44","45","46","47","48","49"],"lat":38.72272288},{"country":"GB","city":"Glasgow","sd":"2016-10","lng":-4.250707236,"prop_cnt_month":[0.0035858359,0.0067234424,0.0349619005,0.0129986553,0.0192738682,0.0251008516,0.1510533393,0.2120125504,0.5342895563],"prop_city_month":0.0064580559,"appversion":["41","42","43","44","45","46","47","48","49"],"lat":55.87440472},{"country":"DE","city":"Hamburg","sd":"2016-10","lng":9.999999144,"prop_cnt_month":[0.0051595745,0.0115957447,0.0331382979,0.012606383,0.0211170213,0.02,0.1492553191,0.2075,0.5395744681,0.0000531915],"prop_city_month":0.0544201934,"appversion":["41","42","43","44","45","46","47","48","49","50"],"lat":53.55002464},{"country":"GB","city":"London","sd":"2016-11","lng":-0.116721844,"prop_cnt_month":[0.0000572803,0.0000572803,0.005728033,0.0072746019,0.0333944324,0.0099667774,0.0131744759,0.0157520907,0.0950280674,0.0705693665,0.4863672815,0.2626303128],"prop_city_month":0.04240899,"appversion":["39","40","41","42","43","44","45","46","47","48","49","50"],"lat":51.49999473},{"country":"HU","city":"Budapest","sd":"2016-12","lng":19.08332068,"prop_cnt_month":[0.0068631764,0.0057193137,0.0397712275,0.0090629125,0.0158380994,0.013550374,0.0896612407,0.0483062033,0.125824901,0.6454025517],"prop_city_month":0.0365046735,"appversion":["41","42","43","44","45","46","47","48","49","50"],"lat":47.50000633},{"country":"IE","city":"Dublin","sd":"2016-09","lng":-6.248905682,"prop_cnt_month":[0.00460918,0.0111388515,0.0409064721,0.0178605723,0.0241981947,0.031496063,0.2548492414,0.4033032456,0.2116381794],"prop_city_month":0.0124581002,"appversion":["41","42","43","44","45","46","47","48","49"],"lat":53.33306114},{"country":"FR","city":"Marseille","sd":"2016-12","lng":5.37501013,"prop_cnt_month":[0.00360036,0.0138013801,0.0393039304,0.0090009001,0.0153015302,0.0147014701,0.096309631,0.0612061206,0.1293129313,0.6174617462],"prop_city_month":0.0107056821,"appversion":["41","42","43","44","45","46","47","48","49","50"],"lat":43.28997906},{"country":"GB","city":"Edinburgh","sd":"2016-12","lng":-3.219090618,"prop_cnt_month":[0.0006968641,0.0041811847,0.0041811847,0.0341463415,0.0034843206,0.0195121951,0.0104529617,0.0822299652,0.0529616725,0.1630662021,0.625087108],"prop_city_month":0.0046092571,"appversion":["39","41","42","43","44","45","46","47","48","49","50"],"lat":55.94832786},{"country":"FR","city":"Paris","sd":"2016-09","lng":2.333335326,"prop_cnt_month":[0.0000281516,0.0000844547,0.008670683,0.0114013851,0.0455210855,0.0190867631,0.0288272057,0.0345701256,0.2602893981,0.4010190868,0.1905016609],"prop_city_month":0.0849887908,"appversion":["39","40","41","42","43","44","45","46","47","48","49"],"lat":48.86669293},{"country":"FR","city":"Lyon","sd":"2016-09","lng":4.830030475,"prop_cnt_month":[0.0081449064,0.0133722344,0.0373206905,0.017748602,0.039144177,0.0324580598,0.2481157306,0.4070021882,0.1966934111],"prop_city_month":0.0196812621,"appversion":["41","42","43","44","45","46","47","48","49"],"lat":45.77000856},{"country":"IE","city":"Dublin","sd":"2016-12","lng":-6.248905682,"prop_cnt_month":[0.0002684564,0.0045637584,0.0118120805,0.0448322148,0.0077852349,0.0182550336,0.033557047,0.0872483221,0.0695302013,0.1444295302,0.5777181208],"prop_city_month":0.0119647962,"appversion":["39","41","42","43","44","45","46","47","48","49","50"],"lat":53.33306114},{"country":"DE","city":"Frankfurt","sd":"2016-09","lng":8.67501542,"prop_cnt_month":[0.000241955,0.0099201549,0.0120977498,0.0529881442,0.0147592548,0.0137914348,0.0304863295,0.2351802565,0.465279458,0.1652552625],"prop_city_month":0.0098884824,"appversion":["40","41","42","43","44","45","46","47","48","49"],"lat":50.09997683},{"country":"PT","city":"Porto","sd":"2016-10","lng":-8.620001263,"prop_cnt_month":[0.0005151984,0.0025759918,0.008758372,0.0314270994,0.0200927357,0.0262751159,0.0288511077,0.1535291087,0.1725914477,0.5553838228],"prop_city_month":0.0056185955,"appversion":["40","41","42","43","44","45","46","47","48","49"],"lat":41.15000633},{"country":"GB","city":"London","sd":"2016-08","lng":-0.116721844,"prop_cnt_month":[0.0000417833,0.0000835666,0.0095683784,0.0131199599,0.0515606067,0.0241089709,0.0318806669,0.0460034262,0.5965821251,0.227050516],"prop_city_month":0.0760345019,"appversion":["39","40","41","42","43","44","45","46","47","48"],"lat":51.49999473},{"country":"ES","city":"Valencia","sd":"2016-11","lng":-0.400012046,"prop_cnt_month":[0.0053172634,0.0102800425,0.0356256647,0.009393832,0.0207373272,0.0223325062,0.1183977313,0.1104218362,0.4007444169,0.2667493797],"prop_city_month":0.0137055517,"appversion":["41","42","43","44","45","46","47","48","49","50"],"lat":39.48501752},{"country":"ES","city":"Barcelona","sd":"2016-11","lng":2.183370319,"prop_cnt_month":[0.0000630557,0.0079450154,0.0102150199,0.0399142443,0.0221955987,0.0193580932,0.0194842046,0.1103474368,0.0774954285,0.4210227631,0.2719591399],"prop_city_month":0.0385246977,"appversion":["39","41","42","43","44","45","46","47","48","49","50"],"lat":41.38329958},{"country":"NL","city":"Amsterdam","sd":"2016-11","lng":4.916640176,"prop_cnt_month":[0.0059750136,0.0071389773,0.0295646776,0.0062854039,0.0152091255,0.0144331497,0.0977729495,0.0700706138,0.4725692558,0.2809808334],"prop_city_month":0.0313051125,"appversion":["41","42","43","44","45","46","47","48","49","50"],"lat":52.34996869},{"country":"DE","city":"Munich","sd":"2016-11","lng":11.57499345,"prop_cnt_month":[0.0000441852,0.00296041,0.0073789325,0.022048427,0.0068487098,0.0140509014,0.0117532697,0.080505479,0.066542948,0.4670378226,0.3208289148],"prop_city_month":0.0549776756,"appversion":["39","41","42","43","44","45","46","47","48","49","50"],"lat":48.12994204},{"country":"RO","city":"Bucharest","sd":"2016-10","lng":26.09994665,"prop_cnt_month":[0.0060606061,0.0076363636,0.0469090909,0.012969697,0.0208484848,0.023030303,0.1499393939,0.1757575758,0.5568484848],"prop_city_month":0.0238812019,"appversion":["41","42","43","44","45","46","47","48","49"],"lat":44.4333718},{"country":"AT","city":"Vienna","sd":"2016-11","lng":16.36663896,"prop_cnt_month":[0.0037026153,0.0082868058,0.0269174258,0.0083455774,0.0131648545,0.0123420511,0.0866294446,0.0685277696,0.4597707905,0.3123126653],"prop_city_month":0.041332854,"appversion":["41","42","43","44","45","46","47","48","49","50"],"lat":48.20001528},{"country":"CH","city":"Bern","sd":"2016-09","lng":7.466975462,"prop_cnt_month":[0.0046391753,0.0097938144,0.0335051546,0.0113402062,0.0283505155,0.025257732,0.2865979381,0.424742268,0.1757731959],"prop_city_month":0.0046415814,"appversion":["41","42","43","44","45","46","47","48","49"],"lat":46.91668276},{"country":"IE","city":"Dublin","sd":"2016-11","lng":-6.248905682,"prop_cnt_month":[0.0057403009,0.0095011876,0.0401821061,0.0091053048,0.0170229612,0.0211797308,0.0880839272,0.075415677,0.4431908155,0.2905779889],"prop_city_month":0.0122723231,"appversion":["41","42","43","44","45","46","47","48","49","50"],"lat":53.33306114},{"country":"FR","city":"Paris","sd":"2016-10","lng":2.333335326,"prop_cnt_month":[0.0000337064,0.0088310638,0.0123365242,0.0471214777,0.0172913577,0.0276392072,0.0274706755,0.1515437508,0.189564514,0.5181677228],"prop_city_month":0.0858796966,"appversion":["40","41","42","43","44","45","46","47","48","49"],"lat":48.86669293},{"country":"FR","city":"Paris","sd":"2016-11","lng":2.333335326,"prop_cnt_month":[0.0000276985,0.0076447941,0.0105531396,0.0380300806,0.0125751323,0.0197767499,0.0178101543,0.099548514,0.0767526244,0.4345345262,0.2827465862],"prop_city_month":0.0877014415,"appversion":["40","41","42","43","44","45","46","47","48","49","50"],"lat":48.86669293},{"country":"RS","city":"Belgrade","sd":"2016-11","lng":20.46799068,"prop_cnt_month":[0.0000981354,0.007360157,0.0069676153,0.0379784102,0.0108930324,0.0171736997,0.015407262,0.0956820412,0.0687929342,0.4314033366,0.3082433759],"prop_city_month":0.0247535576,"appversion":["40","41","42","43","44","45","46","47","48","49","50"],"lat":44.81864545},{"country":"DE","city":"Munich","sd":"2016-09","lng":11.57499345,"prop_cnt_month":[0.0000876309,0.004775884,0.0101651842,0.0291372738,0.0104718924,0.0195416904,0.0222144328,0.2886999956,0.4006046532,0.2143013627],"prop_city_month":0.0546055732,"appversion":["40","41","42","43","44","45","46","47","48","49"],"lat":48.12994204},{"country":"GB","city":"Glasgow","sd":"2016-12","lng":-4.250707236,"prop_cnt_month":[0.0046923879,0.0052137643,0.0297184567,0.0062565172,0.0192909281,0.0099061522,0.0823774765,0.0568300313,0.1423357664,0.6433785193],"prop_city_month":0.0061606655,"appversion":["41","42","43","44","45","46","47","48","49","50"],"lat":55.87440472},{"country":"IT","city":"Milan","sd":"2016-08","lng":9.20500891,"prop_cnt_month":[0.0092592593,0.0121465552,0.0501792115,0.0159299084,0.0279769016,0.04390681,0.6184786937,0.2221226603],"prop_city_month":0.0319095198,"appversion":["41","42","43","44","45","46","47","48"],"lat":45.4699752},{"country":"IT","city":"Rome","sd":"2016-12","lng":12.48325842,"prop_cnt_month":[0.0061564838,0.0184694514,0.0443422693,0.010286783,0.0190149626,0.0169887781,0.1059071072,0.0623441397,0.1391053616,0.5773846633],"prop_city_month":0.0412167154,"appversion":["41","42","43","44","45","46","47","48","49","50"],"lat":41.89595563},{"country":"FR","city":"Nice","sd":"2016-11","lng":7.265023965,"prop_cnt_month":[0.0032786885,0.006557377,0.0295081967,0.0112412178,0.0159250585,0.0173302108,0.0683840749,0.0576112412,0.4660421546,0.3241217799],"prop_city_month":0.005186344,"appversion":["41","42","43","44","45","46","47","48","49","50"],"lat":43.71501772},{"country":"DE","city":"Cologne","sd":"2016-10","lng":6.950004434,"prop_cnt_month":[0.1111111111,0.1666666667,0.1111111111,0.6111111111],"prop_city_month":0.0000521044,"appversion":["46","47","48","49"],"lat":50.93000368},{"country":"GB","city":"Cardiff","sd":"2016-10","lng":-3.22500757,"prop_cnt_month":[0.0076433121,0.0114649682,0.0382165605,0.0178343949,0.025477707,0.0242038217,0.1324840764,0.1847133758,0.5579617834],"prop_city_month":0.0022723325,"appversion":["41","42","43","44","45","46","47","48","49"],"lat":51.49999473},{"country":"CZ","city":"Prague","sd":"2016-10","lng":14.46597978,"prop_cnt_month":[0.0001027221,0.0059578839,0.0081150488,0.037596302,0.0103749358,0.0205444273,0.0239342578,0.148125321,0.1863379558,0.5589111454],"prop_city_month":0.0281798182,"appversion":["40","41","42","43","44","45","46","47","48","49"],"lat":50.08333701},{"country":"ES","city":"Madrid","sd":"2016-12","lng":-3.683351686,"prop_cnt_month":[0.0000571331,0.0071416329,0.0089698909,0.0405073416,0.0099411529,0.0253099469,0.0178255156,0.1087242187,0.0587327887,0.1411757984,0.5816145804],"prop_city_month":0.056220088,"appversion":["40","41","42","43","44","45","46","47","48","49","50"],"lat":40.40002626},{"country":"GB","city":"Edinburgh","sd":"2016-08","lng":-3.219090618,"prop_cnt_month":[0.000640615,0.0051249199,0.0128122998,0.0448430493,0.0166559898,0.0313901345,0.0442024343,0.5855221012,0.2588084561],"prop_city_month":0.0049592553,"appversion":["39","41","42","43","44","45","46","47","48"],"lat":55.94832786},{"country":"BA","city":"Sarajevo","sd":"2016-12","lng":18.38300167,"prop_cnt_month":[0.0086517664,0.010814708,0.0454217736,0.0144196107,0.0201874549,0.0173035328,0.1023792358,0.0475847152,0.1276135544,0.6056236482],"prop_city_month":0.0044550798,"appversion":["41","42","43","44","45","46","47","48","49","50"],"lat":43.8500224},{"country":"DE","city":"Berlin","sd":"2016-08","lng":13.40154862,"prop_cnt_month":[0.0000356748,0.0061360636,0.0143055902,0.0412043809,0.0198351825,0.033248903,0.0404908851,0.5932717349,0.251471585],"prop_city_month":0.0890537385,"appversion":["40","41","42","43","44","45","46","47","48"],"lat":52.52181866},{"country":"DE","city":"Frankfurt","sd":"2016-10","lng":8.67501542,"prop_cnt_month":[0.0079548371,0.0120605594,0.0487554529,0.0143700282,0.0161662818,0.0248909418,0.1272773929,0.130100077,0.618424429],"prop_city_month":0.0112806114,"appversion":["41","42","43","44","45","46","47","48","49"],"lat":50.09997683},{"country":"ES","city":"Madrid","sd":"2016-09","lng":-3.683351686,"prop_cnt_month":[0.0000870474,0.0087047354,0.0114902507,0.0479630919,0.0191068942,0.0335567549,0.0383008357,0.2829038997,0.3640320334,0.1938544568],"prop_city_month":0.0549716361,"appversion":["40","41","42","43","44","45","46","47","48","49"],"lat":40.40002626},{"country":"HU","city":"Budapest","sd":"2016-09","lng":19.08332068,"prop_cnt_month":[0.0058884868,0.0084033613,0.0415260995,0.0126357112,0.0206710421,0.0259461449,0.2449242471,0.4085137705,0.2314911366],"prop_city_month":0.0390060317,"appversion":["41","42","43","44","45","46","47","48","49"],"lat":47.50000633},{"country":"BE","city":"Brussels","sd":"2016-12","lng":4.333316608,"prop_cnt_month":[0.0055564635,0.0080078444,0.0279457428,0.0093152476,0.016505965,0.0158522634,0.0867788854,0.0702729204,0.1403824154,0.619382252],"prop_city_month":0.019654386,"appversion":["41","42","43","44","45","46","47","48","49","50"],"lat":50.83331708},{"country":"DE","city":"Munich","sd":"2016-08","lng":11.57499345,"prop_cnt_month":[0.0000557538,0.0055753791,0.0126003568,0.0399754683,0.0166703836,0.03044157,0.0404214987,0.609779215,0.2444803747],"prop_city_month":0.0569821931,"appversion":["40","41","42","43","44","45","46","47","48"],"lat":48.12994204},{"country":"PT","city":"Lisbon","sd":"2016-11","lng":-9.144866305,"prop_cnt_month":[0.0050856077,0.0079674521,0.0311917274,0.0137311409,0.0161044245,0.0196643499,0.1232412273,0.0718765893,0.4305814545,0.2805560264],"prop_city_month":0.0143298563,"appversion":["41","42","43","44","45","46","47","48","49","50"],"lat":38.72272288},{"country":"CZ","city":"Prague","sd":"2016-11","lng":14.46597978,"prop_cnt_month":[0.0029352566,0.0046125461,0.0267527675,0.0065414291,0.0135021805,0.0153471989,0.0810969473,0.0644079168,0.4586548138,0.3261489433],"prop_city_month":0.028965792,"appversion":["41","42","43","44","45","46","47","48","49","50"],"lat":50.08333701},{"country":"PL","city":"Warsaw","sd":"2016-12","lng":20.99999955,"prop_cnt_month":[0.0000438078,0.0000438078,0.00766636,0.0061768958,0.0326805975,0.009199632,0.011127174,0.0108205196,0.0842861524,0.0386384545,0.1112717396,0.6880448592],"prop_city_month":0.0733209135,"appversion":["39","40","41","42","43","44","45","46","47","48","49","50"],"lat":52.25000063},{"country":"IT","city":"Milan","sd":"2016-11","lng":9.20500891,"prop_cnt_month":[0.0000661288,0.0052903055,0.0078693295,0.0318740907,0.0099193228,0.013159635,0.0149451131,0.0923819601,0.0732046026,0.4528501521,0.2984393599],"prop_city_month":0.0367343766,"appversion":["40","41","42","43","44","45","46","47","48","49","50"],"lat":45.4699752},{"country":"AT","city":"Vienna","sd":"2016-10","lng":16.36663896,"prop_cnt_month":[0.0051942011,0.0117063338,0.0367470347,0.0127141639,0.0200790759,0.0231800915,0.1526474921,0.1966043879,0.5411272192],"prop_city_month":0.037338621,"appversion":["41","42","43","44","45","46","47","48","49"],"lat":48.20001528},{"country":"IT","city":"Rome","sd":"2016-09","lng":12.48325842,"prop_cnt_month":[0.0001142661,0.006398903,0.0168542536,0.0511340913,0.0166828544,0.0254813461,0.0358224304,0.2929212135,0.355996115,0.1985945267],"prop_city_month":0.0418771129,"appversion":["40","41","42","43","44","45","46","47","48","49"],"lat":41.89595563},{"country":"GB","city":"Glasgow","sd":"2016-09","lng":-4.250707236,"prop_cnt_month":[0.0025566107,0.0069393718,0.0299488678,0.0127830533,0.0233747261,0.0259313367,0.2651570489,0.4141709277,0.219138057],"prop_city_month":0.0065508504,"appversion":["41","42","43","44","45","46","47","48","49"],"lat":55.87440472},{"country":"CH","city":"Geneva","sd":"2016-08","lng":6.140028034,"prop_cnt_month":[0.0133928571,0.0178571429,0.0357142857,0.0357142857,0.0580357143,0.0625,0.5625,0.2142857143],"prop_city_month":0.000711642,"appversion":["41","42","43","44","45","46","47","48"],"lat":46.21000755},{"country":"GB","city":"Liverpool","sd":"2016-12","lng":-2.917997886,"prop_cnt_month":[0.0087272727,0.0043636364,0.0392727273,0.0050909091,0.0261818182,0.0130909091,0.1156363636,0.0516363636,0.1250909091,0.6109090909],"prop_city_month":0.0044165355,"appversion":["41","42","43","44","45","46","47","48","49","50"],"lat":53.41600181},{"country":"FR","city":"Bordeaux","sd":"2016-11","lng":-0.595013063,"prop_cnt_month":[0.0032369942,0.0071676301,0.0379190751,0.0092485549,0.0152601156,0.0117919075,0.0857803468,0.0719075145,0.4485549133,0.309132948],"prop_city_month":0.0105062941,"appversion":["41","42","43","44","45","46","47","48","49","50"],"lat":44.85001304},{"country":"FR","city":"Marseille","sd":"2016-10","lng":5.37501013,"prop_cnt_month":[0.000250941,0.0052697616,0.0183186951,0.0514429109,0.0183186951,0.0230865747,0.0341279799,0.1608531995,0.1867001255,0.5016311167],"prop_city_month":0.0115353442,"appversion":["40","41","42","43","44","45","46","47","48","49"],"lat":43.28997906},{"country":"FR","city":"Marseille","sd":"2016-08","lng":5.37501013,"prop_cnt_month":[0.0034920635,0.0079365079,0.0453968254,0.0165079365,0.0266666667,0.0320634921,0.6126984127,0.2552380952],"prop_city_month":0.0100074659,"appversion":["41","42","43","44","45","46","47","48"],"lat":43.28997906},{"country":"GB","city":"Cardiff","sd":"2016-08","lng":-3.22500757,"prop_cnt_month":[0.0070921986,0.0028368794,0.0539007092,0.009929078,0.0397163121,0.0425531915,0.590070922,0.2539007092],"prop_city_month":0.0022397662,"appversion":["41","42","43","44","45","46","47","48"],"lat":51.49999473},{"country":"RO","city":"Bucharest","sd":"2016-12","lng":26.09994665,"prop_cnt_month":[0.0071047957,0.0056018582,0.0400327914,0.0079245799,0.0161224211,0.0127066539,0.0866238557,0.0470009564,0.1269299085,0.6499521793],"prop_city_month":0.023508817,"appversion":["41","42","43","44","45","46","47","48","49","50"],"lat":44.4333718},{"country":"FR","city":"Lyon","sd":"2016-11","lng":4.830030475,"prop_cnt_month":[0.0001310273,0.0069444444,0.0111373166,0.0315775681,0.0125786164,0.0229297694,0.0208333333,0.0881813417,0.0881813417,0.429245283,0.2882599581],"prop_city_month":0.0185396616,"appversion":["40","41","42","43","44","45","46","47","48","49","50"],"lat":45.77000856},{"country":"DE","city":"Berlin","sd":"2016-12","lng":13.40154862,"prop_cnt_month":[0.0000361206,0.0042983565,0.0108723135,0.0306303052,0.0094636085,0.0171573054,0.0136174824,0.0886400578,0.0513274336,0.1458912769,0.6280657396],"prop_city_month":0.088924935,"appversion":["40","41","42","43","44","45","46","47","48","49","50"],"lat":52.52181866},{"country":"FR","city":"Nice","sd":"2016-10","lng":7.265023965,"prop_cnt_month":[0.0005750431,0.0040253019,0.0103507763,0.0483036228,0.0155261645,0.0327774583,0.0322024152,0.1219091432,0.1742380679,0.5600920069],"prop_city_month":0.0050338679,"appversion":["40","41","42","43","44","45","46","47","48","49"],"lat":43.71501772},{"country":"CH","city":"Geneva","sd":"2016-10","lng":6.140028034,"prop_cnt_month":[0.0239043825,0.0079681275,0.0398406375,0.0199203187,0.0398406375,0.0239043825,0.0956175299,0.1832669323,0.5657370518],"prop_city_month":0.0007265675,"appversion":["41","42","43","44","45","46","47","48","49"],"lat":46.21000755},{"country":"FR","city":"Bordeaux","sd":"2016-09","lng":-0.595013063,"prop_cnt_month":[0.0050933786,0.0133701188,0.0581494058,0.0112478778,0.0197368421,0.033106961,0.2533955857,0.4087436333,0.1971561969],"prop_city_month":0.0112737791,"appversion":["41","42","43","44","45","46","47","48","49"],"lat":44.85001304},{"country":"PT","city":"Lisbon","sd":"2016-08","lng":-9.144866305,"prop_cnt_month":[0.0002322341,0.0081281932,0.0141662796,0.0501625639,0.0209010683,0.0350673479,0.0603808639,0.5819786345,0.2289828147],"prop_city_month":0.013680047,"appversion":["39","41","42","43","44","45","46","47","48"],"lat":38.72272288},{"country":"PT","city":"Lisbon","sd":"2016-10","lng":-9.144866305,"prop_cnt_month":[0.0090180361,0.0094188377,0.0416833667,0.0186372745,0.0248496994,0.0294589178,0.174749499,0.1831663327,0.5090180361],"prop_city_month":0.0144445088,"appversion":["41","42","43","44","45","46","47","48","49"],"lat":38.72272288},{"country":"GB","city":"Manchester","sd":"2016-08","lng":-2.247987103,"prop_cnt_month":[0.0096190843,0.0092343209,0.0488649481,0.0123124279,0.0361677568,0.0411696806,0.5886879569,0.2539438245],"prop_city_month":0.0082569536,"appversion":["41","42","43","44","45","46","47","48"],"lat":53.50041526},{"country":"IT","city":"Rome","sd":"2016-10","lng":12.48325842,"prop_cnt_month":[0.0062758621,0.0215172414,0.0559310345,0.0149655172,0.0235862069,0.0292413793,0.1642068966,0.1905517241,0.4937241379],"prop_city_month":0.0419730215,"appversion":["41","42","43","44","45","46","47","48","49"],"lat":41.89595563},{"country":"DE","city":"Hamburg","sd":"2016-08","lng":9.999999144,"prop_cnt_month":[0.0000549692,0.0057717678,0.0147317502,0.0410620053,0.0208883026,0.031112577,0.0397977133,0.5954265611,0.2511543536],"prop_city_month":0.0577954982,"appversion":["40","41","42","43","44","45","46","47","48"],"lat":53.55002464},{"country":"IT","city":"Milan","sd":"2016-09","lng":9.20500891,"prop_cnt_month":[0.0064203265,0.0106550099,0.0402977939,0.012840653,0.0215832252,0.0303940988,0.2847483095,0.3956696947,0.1973908886],"prop_city_month":0.0350295841,"appversion":["41","42","43","44","45","46","47","48","49"],"lat":45.4699752},{"country":"RO","city":"Bucharest","sd":"2016-08","lng":26.09994665,"prop_cnt_month":[0.0067472589,0.0101208884,0.0543997751,0.0195389373,0.0305032331,0.0466685409,0.5671914535,0.2648299128],"prop_city_month":0.022600988,"appversion":["41","42","43","44","45","46","47","48"],"lat":44.4333718},{"country":"FR","city":"Bordeaux","sd":"2016-12","lng":-0.595013063,"prop_cnt_month":[0.0038011696,0.0087719298,0.033625731,0.0073099415,0.0207602339,0.0116959064,0.0815789474,0.069005848,0.1052631579,0.6581871345],"prop_city_month":0.0109851283,"appversion":["41","42","43","44","45","46","47","48","49","50"],"lat":44.85001304},{"country":"PT","city":"Porto","sd":"2016-08","lng":-8.620001263,"prop_cnt_month":[0.0040345821,0.0109510086,0.0472622478,0.0219020173,0.0438040346,0.0576368876,0.6040345821,0.2103746398],"prop_city_month":0.0055120487,"appversion":["41","42","43","44","45","46","47","48"],"lat":41.15000633},{"country":"CH","city":"Bern","sd":"2016-12","lng":7.466975462,"prop_cnt_month":[0.006940428,0.009832273,0.030653557,0.006940428,0.014459225,0.01156738,0.0838635049,0.0746096009,0.1417004049,0.6194331984],"prop_city_month":0.0055535927,"appversion":["41","42","43","44","45","46","47","48","49","50"],"lat":46.91668276},{"country":"FR","city":"Bordeaux","sd":"2016-10","lng":-0.595013063,"prop_cnt_month":[0.0051355207,0.0079885877,0.045363766,0.0111269615,0.0188302425,0.0196861626,0.1435092725,0.1837375178,0.5646219686],"prop_city_month":0.0101458924,"appversion":["41","42","43","44","45","46","47","48","49"],"lat":44.85001304},{"country":"FR","city":"Nice","sd":"2016-09","lng":7.265023965,"prop_cnt_month":[0.0061465721,0.0070921986,0.0387706856,0.011820331,0.0241134752,0.0392434988,0.2364066194,0.4160756501,0.2203309693],"prop_city_month":0.0050602807,"appversion":["41","42","43","44","45","46","47","48","49"],"lat":43.71501772},{"country":"ES","city":"Barcelona","sd":"2016-08","lng":2.183370319,"prop_cnt_month":[0.0002084419,0.0093798854,0.0107347577,0.0568004169,0.0348097968,0.0391870766,0.0537780094,0.5775924961,0.2175091193],"prop_city_month":0.0304830588,"appversion":["40","41","42","43","44","45","46","47","48"],"lat":41.38329958},{"country":"NL","city":"Amsterdam","sd":"2016-10","lng":4.916640176,"prop_cnt_month":[0.0082094711,0.0085551331,0.0476149326,0.0124438299,0.0201348082,0.0236778431,0.1495852057,0.1773245766,0.5524541998],"prop_city_month":0.0334973658,"appversion":["41","42","43","44","45","46","47","48","49"],"lat":52.34996869},{"country":"PT","city":"Porto","sd":"2016-11","lng":-8.620001263,"prop_cnt_month":[0.0057971014,0.0053140097,0.0217391304,0.015942029,0.0140096618,0.0149758454,0.0893719807,0.0632850242,0.4661835749,0.3033816425],"prop_city_month":0.0050284459,"appversion":["41","42","43","44","45","46","47","48","49","50"],"lat":41.15000633},{"country":"BA","city":"Sarajevo","sd":"2016-10","lng":18.38300167,"prop_cnt_month":[0.0073138298,0.0113031915,0.0578457447,0.017287234,0.0279255319,0.0265957447,0.1429521277,0.1748670213,0.5339095745],"prop_city_month":0.0043536155,"appversion":["41","42","43","44","45","46","47","48","49"],"lat":43.8500224},{"country":"DE","city":"Cologne","sd":"2016-08","lng":6.950004434,"prop_cnt_month":[0.7142857143,0.2857142857],"prop_city_month":0.0000222388,"appversion":["47","48"],"lat":50.93000368},{"country":"PL","city":"Warsaw","sd":"2016-09","lng":20.99999955,"prop_cnt_month":[0.000093633,0.0066791511,0.0071785268,0.0343945069,0.0131398252,0.0168539326,0.0223158552,0.2582397004,0.4096129838,0.2314918851],"prop_city_month":0.07665787,"appversion":["40","41","42","43","44","45","46","47","48","49"],"lat":52.25000063},{"country":"DE","city":"Hamburg","sd":"2016-11","lng":9.999999144,"prop_cnt_month":[0.0000447007,0.0030843503,0.0078673282,0.0237807876,0.0083143355,0.0154664521,0.0107728756,0.0858700997,0.0633409325,0.466318001,0.3151401368],"prop_city_month":0.0543436542,"appversion":["39","41","42","43","44","45","46","47","48","49","50"],"lat":53.55002464},{"country":"AT","city":"Vienna","sd":"2016-12","lng":16.36663896,"prop_cnt_month":[0.0046642541,0.0086851628,0.0273421793,0.0083634901,0.0125452352,0.0106956172,0.083876156,0.0554885404,0.147004423,0.6413349417],"prop_city_month":0.0399415411,"appversion":["41","42","43","44","45","46","47","48","49","50"],"lat":48.20001528},{"country":"GR","city":"Athens","sd":"2016-10","lng":23.73332108,"prop_cnt_month":[0.0001146066,0.0073921265,0.0085381927,0.0509426394,0.0132370638,0.0236089622,0.0259583978,0.1526560083,0.1738582316,0.5436937711],"prop_city_month":0.050515255,"appversion":["40","41","42","43","44","45","46","47","48","49"],"lat":37.98332623},{"country":"IE","city":"Dublin","sd":"2016-10","lng":-6.248905682,"prop_cnt_month":[0.0070582878,0.0097905282,0.0507741348,0.0134335155,0.0227686703,0.0289162113,0.1377504554,0.2015027322,0.5280054645],"prop_city_month":0.0127134835,"appversion":["41","42","43","44","45","46","47","48","49"],"lat":53.33306114},{"country":"DE","city":"Cologne","sd":"2016-12","lng":6.950004434,"prop_cnt_month":[0.0909090909,0.0909090909,0.8181818182],"prop_city_month":0.0000353323,"appversion":["47","49","50"],"lat":50.93000368},{"country":"DE","city":"Frankfurt","sd":"2016-08","lng":8.67501542,"prop_cnt_month":[0.0093373494,0.013253012,0.0692771084,0.0186746988,0.0213855422,0.0370481928,0.563253012,0.2677710843],"prop_city_month":0.0105475513,"appversion":["41","42","43","44","45","46","47","48"],"lat":50.09997683},{"country":"ES","city":"Valencia","sd":"2016-10","lng":-0.400012046,"prop_cnt_month":[0.0084306096,0.013618677,0.0490704712,0.0125378297,0.0287505404,0.0313445741,0.1824470385,0.2092520536,0.4645482058],"prop_city_month":0.0133908412,"appversion":["41","42","43","44","45","46","47","48","49"],"lat":39.48501752},{"country":"PT","city":"Porto","sd":"2016-12","lng":-8.620001263,"prop_cnt_month":[0.0049413218,0.0074119827,0.0216182829,0.0284126004,0.0148239654,0.0154416306,0.0747374923,0.0450895615,0.1500926498,0.6374305127],"prop_city_month":0.0052002698,"appversion":["41","42","43","44","45","46","47","48","49","50"],"lat":41.15000633},{"country":"IT","city":"Milan","sd":"2016-12","lng":9.20500891,"prop_cnt_month":[0.0068719555,0.0080027836,0.0320981211,0.0076548365,0.0150487126,0.0163535143,0.0896833681,0.0621085595,0.1283924843,0.6337856646],"prop_city_month":0.0369254489,"appversion":["41","42","43","44","45","46","47","48","49","50"],"lat":45.4699752},{"country":"PL","city":"Warsaw","sd":"2016-08","lng":20.99999955,"prop_cnt_month":[0.0000811557,0.0073851647,0.0086430774,0.0413082292,0.0159065087,0.0245495861,0.0318535952,0.6189741925,0.2512984905],"prop_city_month":0.0782933299,"appversion":["40","41","42","43","44","45","46","47","48"],"lat":52.25000063},{"country":"PT","city":"Lisbon","sd":"2016-12","lng":-9.144866305,"prop_cnt_month":[0.0050361287,0.0070067878,0.0339391285,0.0140135757,0.0155463105,0.0166411211,0.1248084081,0.0602145829,0.1278738778,0.5949200788],"prop_city_month":0.0146693219,"appversion":["41","42","43","44","45","46","47","48","49","50"],"lat":38.72272288}]